{"type":"FeatureCollection","features":[{"type":"Feature","geometry":{"type":"MultiLineString","coordinates":[[[-73.110252,44.492382],[-73.11042433230247,44.492802375196106],[-73.11127580527355,44.49262977698618],[-73.111129,44.491817],[-73.110946,44.491073],[-73.110992,44.490913],[-73.111106,44.490726],[-73.111274,44.490528],[-73.11145,44.490596],[-73.111801,44.490703],[-73.112968,44.491035],[-73.113845,44.491405],[-73.114631,44.491767],[-73.115463,44.492164],[-73.115951,44.492408],[-73.117317,44.493125],[-73.118659,44.493793],[-73.118972,44.493938],[-73.119247,44.494041],[-73.12252,44.495529],[-73.123199,44.495864],[-73.125617,44.496959],[-73.125885,44.49707],[-73.126731,44.497447],[-73.127326,44.497718],[-73.1277,44.497909],[-73.128211,44.498203],[-73.129653,44.499088],[-73.130271,44.499519],[-73.130775,44.499832],[-73.130864854002,44.499879827288],[-73.135638868717,44.502838608188],[-73.135986,44.503036],[-73.136375,44.503238],[-73.136779,44.503425],[-73.13768,44.503753],[-73.138175,44.503887],[-73.138565,44.503978],[-73.139335020255,44.504100174096],[-73.139999,44.50418],[-73.140724,44.504211],[-73.141777,44.504188],[-73.141799,44.504329],[-73.141845,44.504413],[-73.142021,44.504634],[-73.142158,44.504737],[-73.142204,44.504802],[-73.142242,44.504859],[-73.14228,44.504947],[-73.142288,44.505046],[-73.142654,44.505233],[-73.143089,44.505401],[-73.143623,44.505645],[-73.143882,44.505828],[-73.144264,44.506172],[-73.144622,44.506439],[-73.144981,44.506656],[-73.145538,44.506889],[-73.145959,44.507027],[-73.146101,44.507066],[-73.146322,44.507096],[-73.146467,44.507097],[-73.146621,44.50708],[-73.146899,44.507005],[-73.147174,44.506911],[-73.147658,44.506711],[-73.147955,44.506562],[-73.148508,44.506193],[-73.148705,44.506046],[-73.149306,44.505507],[-73.149604,44.505142],[-73.149909,44.504844],[-73.150245,44.504467],[-73.15036,44.504356],[-73.150634,44.504039],[-73.150909,44.503669],[-73.151252,44.503139],[-73.15139,44.502899],[-73.151634,44.50251],[-73.151504,44.502437],[-73.151435,44.502365],[-73.150909,44.501728],[-73.150604,44.501384],[-73.15139,44.500946],[-73.155906,44.498725],[-73.156257,44.498554],[-73.15644,44.498477],[-73.157699,44.497863],[-73.158271,44.49757],[-73.159423,44.497016],[-73.16027,44.496597],[-73.160568,44.496376],[-73.160873,44.496074],[-73.162025,44.494483],[-73.162521,44.493732],[-73.162872,44.493267],[-73.162963,44.493167],[-73.163085,44.493072],[-73.163406,44.492877],[-73.163635,44.492828],[-73.163864,44.492816],[-73.165214,44.492893],[-73.16677,44.493019],[-73.170631,44.493289],[-73.171035,44.493278],[-73.171181830689,44.493308439524],[-73.171313017197,44.493312092752],[-73.171872813492,44.49331587906],[-73.172264,44.493308225835],[-73.174151084656,44.493251399274],[-73.174721542328,44.493217439578],[-73.17517,44.493171],[-73.176025,44.493122],[-73.17646,44.493076],[-73.176895,44.493019],[-73.177467,44.492908],[-73.17826,44.492713],[-73.178588,44.49261],[-73.179718,44.492294],[-73.181915,44.491619],[-73.18193671050567,44.49059157835353],[-73.1819389775379,44.49059722623312],[-73.181938,44.490249],[-73.185432,44.490238],[-73.185661,44.490303],[-73.185714,44.49036],[-73.185745,44.490463],[-73.185752,44.491096],[-73.185775,44.491157],[-73.185821,44.49121],[-73.18589,44.491252],[-73.185981,44.491283],[-73.186103,44.491287],[-73.186203,44.491271],[-73.186279,44.491233],[-73.186355,44.491165],[-73.186386,44.491092],[-73.186393,44.490451],[-73.18647,44.489879],[-73.186485,44.489658],[-73.186729,44.487922],[-73.187194,44.485519],[-73.187309,44.485069],[-73.1874,44.484851],[-73.187515,44.484642],[-73.187675,44.484443],[-73.187828,44.484321],[-73.188018,44.484218],[-73.189422,44.483615],[-73.189979,44.483386],[-73.190986,44.482944],[-73.191871,44.482574],[-73.192642,44.482227],[-73.195159,44.481143],[-73.196006,44.480796],[-73.196266,44.480731],[-73.196495,44.480705],[-73.196655,44.480697],[-73.196617,44.480495],[-73.196578,44.480407],[-73.196533,44.48035],[-73.196434,44.480266],[-73.19635,44.480236],[-73.196144,44.480209],[-73.196037,44.480247],[-73.196006,44.480247],[-73.195617,44.480319],[-73.194786,44.48051],[-73.19429,44.480587],[-73.193908,44.480602],[-73.193359,44.480564],[-73.193099,44.480537],[-73.193008,44.48051],[-73.192863,44.480445],[-73.192764,44.480377],[-73.192672,44.480258],[-73.19239,44.479549],[-73.192367,44.479309],[-73.192398,44.479225],[-73.192543,44.479022],[-73.192672,44.478946],[-73.193153,44.478794],[-73.193214,44.478881],[-73.193328,44.478923],[-73.193496,44.478954],[-73.193832,44.478961],[-73.193916,44.478939],[-73.193969,44.478897],[-73.193977,44.478843],[-73.193832,44.478561],[-73.193756,44.478466],[-73.193665,44.478409],[-73.193565,44.47839],[-73.192993,44.478436],[-73.193047,44.478584],[-73.193153,44.478794],[-73.192787,44.478905],[-73.192673,44.478947],[-73.192543,44.479023],[-73.192398,44.479225],[-73.192368,44.479309],[-73.192368,44.479397],[-73.19239,44.479549],[-73.192673,44.480259],[-73.192764,44.480377],[-73.192863,44.480446],[-73.193008,44.480511],[-73.1931,44.480537],[-73.193359,44.480564],[-73.193909,44.480602],[-73.19429,44.480587],[-73.194786,44.480511],[-73.195374,44.48037],[-73.196007,44.480247],[-73.196037,44.480247],[-73.19622,44.480293],[-73.19635,44.480354],[-73.196411,44.480412],[-73.19648,44.480541],[-73.196495,44.480709],[-73.198456,44.480633],[-73.198414685844,44.480631384351],[-73.198692,44.480617],[-73.199592,44.480594],[-73.199905,44.480628],[-73.200561,44.480743],[-73.200706,44.480754],[-73.201713,44.480747],[-73.207191,44.480621],[-73.211105,44.480488],[-73.21418,44.480396],[-73.214264,44.480392],[-73.214233,44.479733]],[[-73.214409,44.480072],[-73.214432,44.480385],[-73.21344,44.480423],[-73.211105,44.480488],[-73.207504,44.480612],[-73.207107,44.480622],[-73.20712063864,44.480609752902],[-73.205673,44.480659],[-73.203338,44.480705],[-73.201713,44.480747],[-73.200706,44.480754],[-73.200561,44.480743],[-73.199905,44.480628],[-73.199592,44.480594],[-73.198914,44.48061],[-73.196655,44.480698],[-73.196617,44.480499],[-73.196579,44.480408],[-73.196533,44.480354],[-73.196434,44.480267],[-73.19635,44.480236],[-73.196175,44.480209],[-73.196144,44.480209],[-73.196037,44.480247],[-73.195793,44.480286],[-73.195374,44.48037],[-73.194786,44.480511],[-73.19429,44.480587],[-73.193909,44.480602],[-73.193359,44.480564],[-73.1931,44.480537],[-73.193008,44.480511],[-73.192863,44.480446],[-73.192764,44.480377],[-73.192673,44.480259],[-73.19239,44.479549],[-73.192368,44.479397],[-73.192368,44.479309],[-73.192398,44.479225],[-73.192543,44.479023],[-73.192673,44.478947],[-73.192787,44.478905],[-73.193153,44.478794],[-73.193214,44.478882],[-73.193329,44.478924],[-73.193497,44.478954],[-73.193832,44.478962],[-73.193916,44.478939],[-73.19397,44.478897],[-73.193977,44.478844],[-73.193893,44.478676],[-73.193923,44.478733],[-73.193714143517,44.478454501193],[-73.193569350857,44.478391760134],[-73.193032701714,44.478400260649],[-73.192991744705,44.47843536407],[-73.193134224537,44.478778689738],[-73.193054,44.478824],[-73.192672,44.478946],[-73.192543,44.479022],[-73.192398,44.479225],[-73.192367,44.479309],[-73.19239,44.479549],[-73.192672,44.480258],[-73.192764,44.480377],[-73.192863,44.480445],[-73.193008,44.48051],[-73.193099,44.480537],[-73.193359,44.480564],[-73.193908,44.480602],[-73.19429,44.480587],[-73.194786,44.48051],[-73.195617,44.480319],[-73.196006,44.480247],[-73.196037,44.480247],[-73.196136,44.48027],[-73.196289,44.480319],[-73.19635,44.480354],[-73.196411,44.480411],[-73.196479,44.480537],[-73.196495,44.480705],[-73.196266,44.480731],[-73.196006,44.480796],[-73.195159,44.481143],[-73.192642,44.482227],[-73.191871,44.482574],[-73.190986,44.482944],[-73.189979,44.483386],[-73.189422,44.483615],[-73.188018,44.484218],[-73.187828,44.484321],[-73.187675,44.484443],[-73.187515,44.484642],[-73.1874,44.484851],[-73.187309,44.485069],[-73.187194,44.485519],[-73.186729,44.487922],[-73.186485,44.489658],[-73.18647,44.489879],[-73.186416,44.490024],[-73.186317,44.490184],[-73.186157,44.490261],[-73.186027,44.490264],[-73.185432,44.490238],[-73.181938,44.490249],[-73.181912,44.491621],[-73.17978,44.492267],[-73.178698,44.49255],[-73.178269,44.492692],[-73.177876,44.492794],[-73.17746,44.492892],[-73.17688,44.492996],[-73.175992,44.493101],[-73.175028,44.493175],[-73.174883,44.49314],[-73.174162,44.493153],[-73.171908,44.493216],[-73.1712,44.493286],[-73.171098,44.493289],[-73.170986,44.493283],[-73.170989,44.493278],[-73.170631,44.493289],[-73.16677,44.493019],[-73.165214,44.492893],[-73.164138,44.492748],[-73.163787,44.492736],[-73.163467,44.492767],[-73.163368,44.492794],[-73.163131,44.492919],[-73.16294,44.493061],[-73.162658,44.493396],[-73.162155,44.494117],[-73.161895,44.494518],[-73.161582,44.494972],[-73.160949,44.495822],[-73.16072,44.496097],[-73.160514,44.496295],[-73.1604,44.496383],[-73.160156,44.496536],[-73.159904,44.496669],[-73.158187,44.497478],[-73.156211,44.498462],[-73.151329,44.500869],[-73.150497,44.501293],[-73.150604,44.501384],[-73.150909,44.501728],[-73.151435,44.502365],[-73.151504,44.502437],[-73.15159929340683,44.50249807192142],[-73.15139,44.502899],[-73.151252,44.503139],[-73.150909,44.503669],[-73.150634,44.504039],[-73.15036,44.504356],[-73.150245,44.504467],[-73.149907,44.504845],[-73.149608,44.505143],[-73.149407,44.505374],[-73.149306,44.505507],[-73.148705,44.506046],[-73.148508,44.506193],[-73.147955,44.506562],[-73.147658,44.506711],[-73.147174,44.506911],[-73.146899,44.507005],[-73.146621,44.50708],[-73.146467,44.507097],[-73.146322,44.507096],[-73.146101,44.507066],[-73.145959,44.507027],[-73.14554,44.50689],[-73.144981,44.506656],[-73.144622,44.506439],[-73.144264,44.506172],[-73.143882,44.505828],[-73.143623,44.505645],[-73.143089,44.505401],[-73.142654,44.505233],[-73.142288,44.505046],[-73.14228,44.504947],[-73.142242,44.504856],[-73.142158,44.504737],[-73.142021,44.504634],[-73.141845,44.504413],[-73.141799,44.504329],[-73.141777,44.504188],[-73.141777,44.504096],[-73.140655,44.504123],[-73.139907,44.504085],[-73.139198,44.504001],[-73.138229,44.503807],[-73.137588,44.503616],[-73.13694,44.503387],[-73.136528,44.503204],[-73.135963,44.502914],[-73.132286,44.500621],[-73.130569,44.499568],[-73.130119,44.49932],[-73.129653,44.499088],[-73.128211,44.498203],[-73.1277,44.497909],[-73.127326,44.497718],[-73.126731,44.497447],[-73.125885,44.49707],[-73.125617,44.496959],[-73.123199,44.495864],[-73.12252,44.495529],[-73.119247,44.494041],[-73.118972,44.493938],[-73.118659,44.493793],[-73.117317,44.493125],[-73.116538,44.492717],[-73.116078,44.492486],[-73.115949,44.49241],[-73.114869,44.491872],[-73.113513,44.491259],[-73.112969,44.491036],[-73.111275,44.490528],[-73.110971,44.490628],[-73.110497,44.49085],[-73.109709,44.491327],[-73.109937,44.491798],[-73.11008,44.492074],[-73.110256,44.49239]],[[-73.214409,44.480072],[-73.214432,44.480385],[-73.21344,44.480423],[-73.211105,44.480488],[-73.207504,44.480612],[-73.207107,44.480622],[-73.20712063864,44.480609752902],[-73.205673,44.480659],[-73.203338,44.480705],[-73.201713,44.480747],[-73.200706,44.480754],[-73.200561,44.480743],[-73.199905,44.480628],[-73.199592,44.480594],[-73.198914,44.48061],[-73.196655,44.480698],[-73.196617,44.480499],[-73.196579,44.480408],[-73.196533,44.480354],[-73.196434,44.480267],[-73.19635,44.480236],[-73.196175,44.480209],[-73.196144,44.480209],[-73.196037,44.480247],[-73.195793,44.480286],[-73.195374,44.48037],[-73.194786,44.480511],[-73.19429,44.480587],[-73.193909,44.480602],[-73.193359,44.480564],[-73.1931,44.480537],[-73.193008,44.480511],[-73.192863,44.480446],[-73.192764,44.480377],[-73.192673,44.480259],[-73.19239,44.479549],[-73.192368,44.479397],[-73.192368,44.479309],[-73.192398,44.479225],[-73.192543,44.479023],[-73.192673,44.478947],[-73.192787,44.478905],[-73.193153,44.478794],[-73.193214,44.478882],[-73.193329,44.478924],[-73.193497,44.478954],[-73.193832,44.478962],[-73.193916,44.478939],[-73.19397,44.478897],[-73.193977,44.478844],[-73.193893,44.478676],[-73.193923,44.478733],[-73.193714143517,44.478454501193],[-73.193569350857,44.478391760134],[-73.193032701714,44.478400260649],[-73.192991744705,44.47843536407],[-73.193134224537,44.478778689738],[-73.193054,44.478824],[-73.192672,44.478946],[-73.192543,44.479022],[-73.192398,44.479225],[-73.192367,44.479309],[-73.19239,44.479549],[-73.192672,44.480258],[-73.192764,44.480377],[-73.192863,44.480445],[-73.193008,44.48051],[-73.193099,44.480537],[-73.193359,44.480564],[-73.193908,44.480602],[-73.19429,44.480587],[-73.194786,44.48051],[-73.195617,44.480319],[-73.196006,44.480247],[-73.196037,44.480247],[-73.196136,44.48027],[-73.196289,44.480319],[-73.19635,44.480354],[-73.196411,44.480411],[-73.196479,44.480537],[-73.196495,44.480705],[-73.196266,44.480731],[-73.196006,44.480796],[-73.195159,44.481143],[-73.192642,44.482227],[-73.191871,44.482574],[-73.190986,44.482944],[-73.189979,44.483386],[-73.189422,44.483615],[-73.188018,44.484218],[-73.187828,44.484321],[-73.187675,44.484443],[-73.187515,44.484642],[-73.1874,44.484851],[-73.187309,44.485069],[-73.187194,44.485519],[-73.186729,44.487922],[-73.186485,44.489658],[-73.18647,44.489879],[-73.186416,44.490024],[-73.186317,44.490184],[-73.186157,44.490261],[-73.186027,44.490264],[-73.185432,44.490238],[-73.181938,44.490249],[-73.181912,44.491621],[-73.17978,44.492267],[-73.178698,44.49255],[-73.178269,44.492692],[-73.177876,44.492794],[-73.17746,44.492892],[-73.17688,44.492996],[-73.175992,44.493101],[-73.175028,44.493175],[-73.174883,44.49314],[-73.174162,44.493153],[-73.171908,44.493216],[-73.1712,44.493286],[-73.171098,44.493289],[-73.170986,44.493283],[-73.170989,44.493278],[-73.170631,44.493289],[-73.16677,44.493019],[-73.165214,44.492893],[-73.164138,44.492748],[-73.163787,44.492736],[-73.163467,44.492767],[-73.163368,44.492794],[-73.163131,44.492919],[-73.16294,44.493061],[-73.162658,44.493396],[-73.162155,44.494117],[-73.161895,44.494518],[-73.161582,44.494972],[-73.160949,44.495822],[-73.16072,44.496097],[-73.160514,44.496295],[-73.1604,44.496383],[-73.160156,44.496536],[-73.159904,44.496669],[-73.158187,44.497478],[-73.156211,44.498462],[-73.151329,44.500869],[-73.150497,44.501293],[-73.150604,44.501384],[-73.150909,44.501728],[-73.151435,44.502365],[-73.151504,44.502437],[-73.15159929340683,44.50249807192142],[-73.15139,44.502899],[-73.151252,44.503139],[-73.150909,44.503669],[-73.150634,44.504039],[-73.15036,44.504356],[-73.150245,44.504467],[-73.149907,44.504845],[-73.149608,44.505143],[-73.149407,44.505374],[-73.149306,44.505507],[-73.148705,44.506046],[-73.148508,44.506193],[-73.147955,44.506562],[-73.147658,44.506711],[-73.147174,44.506911],[-73.146899,44.507005],[-73.146621,44.50708],[-73.146467,44.507097],[-73.146322,44.507096],[-73.146101,44.507066],[-73.145959,44.507027],[-73.14554,44.50689],[-73.144981,44.506656],[-73.144622,44.506439],[-73.144264,44.506172],[-73.143882,44.505828],[-73.143623,44.505645],[-73.143089,44.505401],[-73.142654,44.505233],[-73.142288,44.505046],[-73.14228,44.504947],[-73.142242,44.504856],[-73.142158,44.504737],[-73.142021,44.504634],[-73.141845,44.504413],[-73.141799,44.504329],[-73.141777,44.504188],[-73.141777,44.504096],[-73.140655,44.504123],[-73.139907,44.504085],[-73.139198,44.504001],[-73.138229,44.503807],[-73.137588,44.503616],[-73.13694,44.503387],[-73.136528,44.503204],[-73.135963,44.502914],[-73.132286,44.500621],[-73.130569,44.499568],[-73.130119,44.49932],[-73.129653,44.499088],[-73.128211,44.498203],[-73.1277,44.497909],[-73.127326,44.497718],[-73.125885,44.49707],[-73.125617,44.496959],[-73.12397,44.496215],[-73.123199,44.495864],[-73.12252,44.495529],[-73.119247,44.494041],[-73.118972,44.493938],[-73.118659,44.493793],[-73.117317,44.493125],[-73.116081,44.492485],[-73.115952,44.492409],[-73.115463,44.492165],[-73.114868,44.491871],[-73.113846,44.491405],[-73.112968,44.491035],[-73.111275,44.490528],[-73.111397,44.490307],[-73.112007,44.489265],[-73.112175,44.488949],[-73.112373,44.488636],[-73.112579,44.488277],[-73.113411,44.486794],[-73.113731,44.486206],[-73.114006,44.485676],[-73.11412,44.485508],[-73.114441,44.484936],[-73.114563,44.484695],[-73.114716,44.484436],[-73.114868,44.484146],[-73.11483,44.484093],[-73.114723,44.484009],[-73.11412,44.483883],[-73.113976,44.483879],[-73.113762,44.483902],[-73.113403,44.483974],[-73.112694,44.484135],[-73.112335,44.484184],[-73.112183,44.484188],[-73.111961,44.48415],[-73.111763,44.4841],[-73.111328,44.483967],[-73.111008,44.483829],[-73.110519,44.483578],[-73.110283,44.48341],[-73.10915468098268,44.48237586028054],[-73.10255299102296,44.47824224232676],[-73.10191980359082,44.47874137570278],[-73.10175718268994,44.47878005292827],[-73.10157371295493,44.47878005292827],[-73.10087256502267,44.4786046123582],[-73.10087739639602,44.4785563509389],[-73.10085323953297,44.47852072938801],[-73.10081619901014,44.478504642228586],[-73.10076299996777,44.478491963821796],[-73.10071951761431,44.47849885832065],[-73.10067925617616,44.478522989060195],[-73.10066959343094,44.47857354867281],[-73.10068408754876,44.478613766515224],[-73.10075655813787,44.47864249352824],[-73.10082580781167,44.478635599046385],[-73.10087111047595,44.47860257445353],[-73.1015650346418,44.47878198660115],[-73.1017725215363,44.47878551145726],[-73.1019157862964,44.47874497559775],[-73.10255547671144,44.47824063043112],[-73.10917113639003,44.48237843707912],[-73.110077,44.483227],[-73.110283,44.48341],[-73.110519,44.483578],[-73.111008,44.483829],[-73.111549,44.484062],[-73.111801,44.484158],[-73.112007,44.484257],[-73.112633,44.484524],[-73.112907,44.484699],[-73.113815,44.485485],[-73.114006,44.485676],[-73.113731,44.486206],[-73.113411,44.486794],[-73.112373,44.488636],[-73.112175,44.488949],[-73.112007,44.489265],[-73.111397,44.490307],[-73.111275,44.490528],[-73.111107,44.490726],[-73.110992,44.490913],[-73.110947,44.491074],[-73.11113,44.491817],[-73.110336,44.492001],[-73.110077,44.492073],[-73.11026,44.49239]]]},"properties":{"id":42434268,"onestop_id":"r-drgv-2","feed_onestop_id":"f-dru-chittendoncounty~vt~us","feed_version_sha1":"c6112ceb7f96f0ae6034a3c9780217f7705d0a0c","route_id":"19139","route_color":"3a56ce","route_desc":"","route_long_name":"Essex Junction","route_short_name":"2","route_type":3,"route_url":"https://ridegmt.com/2-essex-2/","alerts":[],"route_stops":[{"__typename":"RouteStop","stop":{"__typename":"Stop","id":813699140,"stop_id":"2562322","stop_name":"Downtown Transit Center - A, C, E, G, I","geometry":{"type":"Point","coordinates":[-73.214298,44.479731]}}},{"__typename":"RouteStop","stop":{"__typename":"Stop","id":813699141,"stop_id":"2562331","stop_name":"Downtown Transit Center - B, D, F, H, J","geometry":{"type":"Point","coordinates":[-73.2143455885423,44.4800747713893]}}},{"__typename":"RouteStop","stop":{"__typename":"Stop","id":813699219,"stop_id":"4209790","stop_name":"E Allen Street at Hillside Park","geometry":{"type":"Point","coordinates":[-73.1758636133916,44.4930287162322]}}},{"__typename":"RouteStop","stop":{"__typename":"Stop","id":813699498,"stop_id":"805752","stop_name":"Pearl Street at Hungerford Terrace","geometry":{"type":"Point","coordinates":[-73.207105,44.480581]}}},{"__typename":"RouteStop","stop":{"__typename":"Stop","id":813699499,"stop_id":"805753","stop_name":"Pearl Street at S. Willard Street","geometry":{"type":"Point","coordinates":[-73.205833,44.480612]}}},{"__typename":"RouteStop","stop":{"__typename":"Stop","id":813699500,"stop_id":"805754","stop_name":"Pearl Street at S Prospect Street (UHC)","geometry":{"type":"Point","coordinates":[-73.201381,44.480731]}}},{"__typename":"RouteStop","stop":{"__typename":"Stop","id":813699501,"stop_id":"805755","stop_name":"Colchester Avenue at Mansfield House","geometry":{"type":"Point","coordinates":[-73.198914,44.480579]}}},{"__typename":"RouteStop","stop":{"__typename":"Stop","id":813699502,"stop_id":"805756","stop_name":"Colchester Avenue at Fleming Museum","geometry":{"type":"Point","coordinates":[-73.1968665240963,44.4805912625953]}}},{"__typename":"RouteStop","stop":{"__typename":"Stop","id":813699503,"stop_id":"805757","stop_name":"UVM Medical Center","geometry":{"type":"Point","coordinates":[-73.1939696441803,44.4786566641105]}}},{"__typename":"RouteStop","stop":{"__typename":"Stop","id":813699504,"stop_id":"805758","stop_name":"Colchester Avenue at Latham Court","geometry":{"type":"Point","coordinates":[-73.191938,44.482512]}}},{"__typename":"RouteStop","stop":{"__typename":"Stop","id":813699505,"stop_id":"805759","stop_name":"Colchester Avenue at Thibault Parkway","geometry":{"type":"Point","coordinates":[-73.190514,44.483129]}}},{"__typename":"RouteStop","stop":{"__typename":"Stop","id":813699506,"stop_id":"805760","stop_name":"Colchester Avenue at 339","geometry":{"type":"Point","coordinates":[-73.188415,44.484018]}}},{"__typename":"RouteStop","stop":{"__typename":"Stop","id":813699507,"stop_id":"805761","stop_name":"Colchester Avenue at Chase Street","geometry":{"type":"Point","coordinates":[-73.186976,44.486436]}}},{"__typename":"RouteStop","stop":{"__typename":"Stop","id":813699508,"stop_id":"805762","stop_name":"Colchester Avenue at Barrett Street","geometry":{"type":"Point","coordinates":[-73.186696,44.487802]}}},{"__typename":"RouteStop","stop":{"__typename":"Stop","id":813699509,"stop_id":"805763","stop_name":"Winooski Falls/Champlain Mill","geometry":{"type":"Point","coordinates":[-73.18437,44.49022]}}},{"__typename":"RouteStop","stop":{"__typename":"Stop","id":813699511,"stop_id":"805765","stop_name":"College Parkway at Opposite Florida Avenue","geometry":{"type":"Point","coordinates":[-73.170992,44.493226]}}},{"__typename":"RouteStop","stop":{"__typename":"Stop","id":813699512,"stop_id":"805766","stop_name":"Saint Michael's College","geometry":{"type":"Point","coordinates":[-73.16772697628687,44.49297301724816]}}},{"__typename":"RouteStop","stop":{"__typename":"Stop","id":813699513,"stop_id":"805767","stop_name":"College Parkway at Lime Kiln Road","geometry":{"type":"Point","coordinates":[-73.163626,44.492695]}}},{"__typename":"RouteStop","stop":{"__typename":"Stop","id":813699514,"stop_id":"805768","stop_name":"College Parkway at Fanny Allen Hospital","geometry":{"type":"Point","coordinates":[-73.158333,44.497364]}}},{"__typename":"RouteStop","stop":{"__typename":"Stop","id":813699515,"stop_id":"805769","stop_name":"Ethan Allen Avenue at University Lane","geometry":{"type":"Point","coordinates":[-73.151287,44.502994]}}},{"__typename":"RouteStop","stop":{"__typename":"Stop","id":813699516,"stop_id":"805770","stop_name":"Ethan Allen Avenue at Catamount Lane","geometry":{"type":"Point","coordinates":[-73.150689,44.503845]}}},{"__typename":"RouteStop","stop":{"__typename":"Stop","id":813699517,"stop_id":"805771","stop_name":"Ethan Allen Avenue at VT Public TV","geometry":{"type":"Point","coordinates":[-73.149892,44.50475]}}},{"__typename":"RouteStop","stop":{"__typename":"Stop","id":813699521,"stop_id":"805775","stop_name":"Ethan Allen Avenue at Opposite Green Mt. Nursing","geometry":{"type":"Point","coordinates":[-73.145364,44.506784]}}},{"__typename":"RouteStop","stop":{"__typename":"Stop","id":813699522,"stop_id":"805776","stop_name":"Ethan Allen Avenue at Essex Avenue (Bld. #310)","geometry":{"type":"Point","coordinates":[-73.143241,44.50543]}}},{"__typename":"RouteStop","stop":{"__typename":"Stop","id":813699523,"stop_id":"805777","stop_name":"Pearl Street at West Street Extension","geometry":{"type":"Point","coordinates":[-73.13062824322117,44.49952282479167]}}},{"__typename":"RouteStop","stop":{"__typename":"Stop","id":813699524,"stop_id":"805778","stop_name":"Pearl Street at Opposite Complex 159","geometry":{"type":"Point","coordinates":[-73.127775,44.497858]}}},{"__typename":"RouteStop","stop":{"__typename":"Stop","id":813699525,"stop_id":"805779","stop_name":"Pearl Street at Opposite Willey's Court","geometry":{"type":"Point","coordinates":[-73.1254138552707,44.4968059911076]}}},{"__typename":"RouteStop","stop":{"__typename":"Stop","id":813699526,"stop_id":"805780","stop_name":"Pearl Street at KFC","geometry":{"type":"Point","coordinates":[-73.124482,44.496383]}}},{"__typename":"RouteStop","stop":{"__typename":"Stop","id":813699527,"stop_id":"805781","stop_name":"Pearl Street at Capital Lincoln","geometry":{"type":"Point","coordinates":[-73.121634,44.495081]}}},{"__typename":"RouteStop","stop":{"__typename":"Stop","id":813699528,"stop_id":"805782","stop_name":"Pearl Street at Roscoe Court (Shopping Center)","geometry":{"type":"Point","coordinates":[-73.119419,44.494046]}}},{"__typename":"RouteStop","stop":{"__typename":"Stop","id":813699529,"stop_id":"805783","stop_name":"Pearl Street at Merchants Bank","geometry":{"type":"Point","coordinates":[-73.11657,44.492685]}}},{"__typename":"RouteStop","stop":{"__typename":"Stop","id":813699538,"stop_id":"805792","stop_name":"Amtrak","geometry":{"type":"Point","coordinates":[-73.11022,44.4924]}}},{"__typename":"RouteStop","stop":{"__typename":"Stop","id":813699539,"stop_id":"805793","stop_name":"Lincoln Street at Brownell Library","geometry":{"type":"Point","coordinates":[-73.11107,44.49122]}}},{"__typename":"RouteStop","stop":{"__typename":"Stop","id":813699540,"stop_id":"805794","stop_name":"Pearl Street at Summit Street","geometry":{"type":"Point","coordinates":[-73.1155,44.492274]}}},{"__typename":"RouteStop","stop":{"__typename":"Stop","id":813699541,"stop_id":"805795","stop_name":"Pearl Street at Hillcrest Road (Jiffy Lube)","geometry":{"type":"Point","coordinates":[-73.117389,44.493225]}}},{"__typename":"RouteStop","stop":{"__typename":"Stop","id":813699542,"stop_id":"805796","stop_name":"Pearl Street at Essex Junction Shopping Center.","geometry":{"type":"Point","coordinates":[-73.120046,44.494521]}}},{"__typename":"RouteStop","stop":{"__typename":"Stop","id":813699543,"stop_id":"805797","stop_name":"Pearl Street at Gate A Fairgrounds","geometry":{"type":"Point","coordinates":[-73.122406,44.4956]}}},{"__typename":"RouteStop","stop":{"__typename":"Stop","id":813699544,"stop_id":"805798","stop_name":"Pearl Street at Willey's Court","geometry":{"type":"Point","coordinates":[-73.125335,44.49691]}}},{"__typename":"RouteStop","stop":{"__typename":"Stop","id":813699545,"stop_id":"805799","stop_name":"Pearl Street at Complex 159","geometry":{"type":"Point","coordinates":[-73.127588,44.497953]}}},{"__typename":"RouteStop","stop":{"__typename":"Stop","id":813699546,"stop_id":"805800","stop_name":"Pearl Street at West Street (U-Turn)","geometry":{"type":"Point","coordinates":[-73.130796,44.499922]}}},{"__typename":"RouteStop","stop":{"__typename":"Stop","id":813699547,"stop_id":"805801","stop_name":"Pearl Street at 197 Pearl Inc.","geometry":{"type":"Point","coordinates":[-73.132168,44.50076]}}},{"__typename":"RouteStop","stop":{"__typename":"Stop","id":813699548,"stop_id":"805802","stop_name":"Pearl Street at Contois Music","geometry":{"type":"Point","coordinates":[-73.133839,44.501798]}}},{"__typename":"RouteStop","stop":{"__typename":"Stop","id":813699549,"stop_id":"805803","stop_name":"Pearl Street at 241 Pearl Apartments","geometry":{"type":"Point","coordinates":[-73.135618,44.502877]}}},{"__typename":"RouteStop","stop":{"__typename":"Stop","id":813699550,"stop_id":"805804","stop_name":"Pearl Street at Susie Wilson Road","geometry":{"type":"Point","coordinates":[-73.139286,44.504157]}}},{"__typename":"RouteStop","stop":{"__typename":"Stop","id":813699551,"stop_id":"805805","stop_name":"Ethan Allen Avenue at Laurette Drive","geometry":{"type":"Point","coordinates":[-73.142164,44.504828]}}},{"__typename":"RouteStop","stop":{"__typename":"Stop","id":813699552,"stop_id":"805806","stop_name":"Ethan Allen Avenue at Green Mtn. Nursing","geometry":{"type":"Point","coordinates":[-73.145567,44.506969]}}},{"__typename":"RouteStop","stop":{"__typename":"Stop","id":813699554,"stop_id":"805808","stop_name":"Ethan Allen Avenue at Sloane Hall","geometry":{"type":"Point","coordinates":[-73.15017664095814,44.50465687088816]}}},{"__typename":"RouteStop","stop":{"__typename":"Stop","id":813699555,"stop_id":"805809","stop_name":"Ethan Allen Avenue at Catamount Lane","geometry":{"type":"Point","coordinates":[-73.150807,44.503856]}}},{"__typename":"RouteStop","stop":{"__typename":"Stop","id":813699556,"stop_id":"805810","stop_name":"Ethan Allen Avenue at Barnes Avenue","geometry":{"type":"Point","coordinates":[-73.15154,44.502712]}}},{"__typename":"RouteStop","stop":{"__typename":"Stop","id":813699557,"stop_id":"805811","stop_name":"College Parkway at Cumberland Farms","geometry":{"type":"Point","coordinates":[-73.158398,44.497571]}}},{"__typename":"RouteStop","stop":{"__typename":"Stop","id":813699558,"stop_id":"805812","stop_name":"College Parkway at Johnson Avenue","geometry":{"type":"Point","coordinates":[-73.15976,44.496917]}}},{"__typename":"RouteStop","stop":{"__typename":"Stop","id":813699559,"stop_id":"805813","stop_name":"College Parkway at Campus Rd. (Saint Mikes East Entrance)","geometry":{"type":"Point","coordinates":[-73.1618200255496,44.4948981253552]}}},{"__typename":"RouteStop","stop":{"__typename":"Stop","id":813699560,"stop_id":"805814","stop_name":"Saint Michael's College","geometry":{"type":"Point","coordinates":[-73.16288269076387,44.49346454402722]}}},{"__typename":"RouteStop","stop":{"__typename":"Stop","id":813699561,"stop_id":"805815","stop_name":"College Parkway at Campus Rd. (Saint Mikes West Entrance)","geometry":{"type":"Point","coordinates":[-73.166998,44.493114]}}},{"__typename":"RouteStop","stop":{"__typename":"Stop","id":813699562,"stop_id":"805816","stop_name":"College Parkway at Florida Avenue","geometry":{"type":"Point","coordinates":[-73.171038,44.493376]}}},{"__typename":"RouteStop","stop":{"__typename":"Stop","id":813699563,"stop_id":"805817","stop_name":"E Allen Street at Dion Street","geometry":{"type":"Point","coordinates":[-73.1756392046093,44.4932242751315]}}},{"__typename":"RouteStop","stop":{"__typename":"Stop","id":813699565,"stop_id":"805819","stop_name":"Spinner Place/ Champlain Mill","geometry":{"type":"Point","coordinates":[-73.1848931831459,44.4903075657594]}}},{"__typename":"RouteStop","stop":{"__typename":"Stop","id":813699566,"stop_id":"805820","stop_name":"Colchester Avenue at Barrett Street","geometry":{"type":"Point","coordinates":[-73.186825,44.48766]}}},{"__typename":"RouteStop","stop":{"__typename":"Stop","id":813699567,"stop_id":"805821","stop_name":"Colchester Avenue at Opposite Chase Street","geometry":{"type":"Point","coordinates":[-73.187045,44.486574]}}},{"__typename":"RouteStop","stop":{"__typename":"Stop","id":813699568,"stop_id":"805822","stop_name":"Colchester Avenue at Nash Place","geometry":{"type":"Point","coordinates":[-73.189341,44.483724]}}},{"__typename":"RouteStop","stop":{"__typename":"Stop","id":813699569,"stop_id":"805823","stop_name":"Colchester Avenue at UVM Trinty Campus","geometry":{"type":"Point","coordinates":[-73.191372,44.482849]}}},{"__typename":"RouteStop","stop":{"__typename":"Stop","id":813699570,"stop_id":"805824","stop_name":"Colchester Avenue at Mansfield Avenue","geometry":{"type":"Point","coordinates":[-73.198467,44.480697]}}},{"__typename":"RouteStop","stop":{"__typename":"Stop","id":813699571,"stop_id":"805825","stop_name":"Pearl Street at N. Prospect Street","geometry":{"type":"Point","coordinates":[-73.200124,44.480722]}}},{"__typename":"RouteStop","stop":{"__typename":"Stop","id":813699572,"stop_id":"805826","stop_name":"Pearl Street at N. Williams Street","geometry":{"type":"Point","coordinates":[-73.203485,44.480754]}}},{"__typename":"RouteStop","stop":{"__typename":"Stop","id":813699573,"stop_id":"805827","stop_name":"Pearl Street at N. Willard Street","geometry":{"type":"Point","coordinates":[-73.205423,44.480709]}}},{"__typename":"RouteStop","stop":{"__typename":"Stop","id":813699574,"stop_id":"805828","stop_name":"Pearl Street at Greene Street","geometry":{"type":"Point","coordinates":[-73.207642,44.480637]}}},{"__typename":"RouteStop","stop":{"__typename":"Stop","id":813699631,"stop_id":"805886","stop_name":"Pearl Street at Hillcrest Road","geometry":{"type":"Point","coordinates":[-73.116386,44.49273]}}},{"__typename":"RouteStop","stop":{"__typename":"Stop","id":813699696,"stop_id":"805954","stop_name":"Pearl Street at N Winooski Avenue","geometry":{"type":"Point","coordinates":[-73.21053,44.48046]}}},{"__typename":"RouteStop","stop":{"__typename":"Stop","id":813699699,"stop_id":"805957","stop_name":"Global Foundries","geometry":{"type":"Point","coordinates":[-73.1009221958775,44.4786702168911]}}},{"__typename":"RouteStop","stop":{"__typename":"Stop","id":813699738,"stop_id":"806001","stop_name":"Colchester Avenue at VAS Clinic","geometry":{"type":"Point","coordinates":[-73.197324,44.480738]}}},{"__typename":"RouteStop","stop":{"__typename":"Stop","id":813699749,"stop_id":"806013","stop_name":"College Parkway at Camp Johnson","geometry":{"type":"Point","coordinates":[-73.1559835326247,44.49880348515874]}}},{"__typename":"RouteStop","stop":{"__typename":"Stop","id":813699763,"stop_id":"806027","stop_name":"Fort Ethan Allen/Elly-Long Music Building","geometry":{"type":"Point","coordinates":[-73.149362,44.505446]}}},{"__typename":"RouteStop","stop":{"__typename":"Stop","id":813699767,"stop_id":"806031","stop_name":"Abenaki Way at CCV","geometry":{"type":"Point","coordinates":[-73.18188,44.4914]}}},{"__typename":"RouteStop","stop":{"__typename":"Stop","id":813699784,"stop_id":"806048","stop_name":"Ethan Allen Avenue at Winooski Road (#310)","geometry":{"type":"Point","coordinates":[-73.143589963389,44.5056706154035]}}},{"__typename":"RouteStop","stop":{"__typename":"Stop","id":813699803,"stop_id":"806067","stop_name":"E Allen Street at Gadues Dry Cleaning","geometry":{"type":"Point","coordinates":[-73.180731,44.492057]}}},{"__typename":"RouteStop","stop":{"__typename":"Stop","id":813699804,"stop_id":"806068","stop_name":"Abenaki Way at Opposite CCV","geometry":{"type":"Point","coordinates":[-73.18206826541565,44.49057554288402]}}},{"__typename":"RouteStop","stop":{"__typename":"Stop","id":813699865,"stop_id":"806130","stop_name":"Ethan Allen Avenue at Rt. 15","geometry":{"type":"Point","coordinates":[-73.142277,44.504827]}}}],"agency":{"__typename":"Agency","id":939446,"agency_id":"461","agency_name":"Green Mountain Transit","onestop_id":"o-dru-greenmountaintransitagency"},"headways":[{"__typename":"RouteHeadway","dow_category":1,"service_date":"2023-08-28","direction_id":0,"headway_secs":1200,"departures":["06:00:00","06:20:00","06:40:00","07:00:00","07:20:00","07:40:00","08:00:00","08:20:00","08:40:00","09:00:00","09:20:00","09:40:00","10:00:00","10:20:00","10:40:00","11:00:00","11:20:00","11:40:00","12:00:00","12:20:00","12:40:00","13:00:00","13:20:00","13:40:00","14:00:00","14:20:00","14:40:00","15:00:00","15:20:00","15:40:00","16:00:00","16:20:00","16:40:00","17:00:00","17:20:00","17:40:00","18:00:00","18:30:00","19:00:00","20:00:00","21:15:00","22:30:00"]},{"__typename":"RouteHeadway","dow_category":6,"service_date":"2023-09-02","direction_id":0,"headway_secs":1800,"departures":["06:30:00","07:00:00","07:30:00","08:00:00","08:30:00","09:00:00","09:30:00","10:00:00","10:30:00","11:00:00","11:30:00","12:00:00","12:30:00","13:00:00","13:30:00","14:00:00","14:30:00","15:00:00","15:30:00","16:00:00","16:30:00","17:00:00","17:30:00","18:00:00","18:30:00","19:00:00","20:00:00","21:15:00","22:30:00"]},{"__typename":"RouteHeadway","dow_category":7,"service_date":"2023-09-03","direction_id":0,"headway_secs":2700,"departures":["08:00:00","08:45:00","09:30:00","10:15:00","11:00:00","11:45:00","12:30:00","13:15:00","14:00:00","14:45:00","15:30:00","16:15:00","17:00:00","17:45:00","18:30:00"]},{"__typename":"RouteHeadway","dow_category":1,"service_date":"2023-08-28","direction_id":1,"headway_secs":1200,"departures":["06:30:00","06:50:00","07:10:00","07:30:00","07:50:00","08:10:00","08:30:00","08:50:00","09:10:00","09:30:00","09:50:00","10:13:00","10:33:00","10:53:00","11:13:00","11:33:00","11:53:00","12:13:00","12:33:00","12:53:00","13:13:00","13:33:00","13:53:00","14:13:00","14:33:00","14:53:00","15:13:00","15:33:00","15:58:00","16:18:00","16:38:00","17:03:00","17:18:00","17:38:00","17:58:00","18:15:00","18:35:00","18:55:00","19:15:00","19:45:00","20:15:00","21:10:00","22:25:00","23:40:00"]},{"__typename":"RouteHeadway","dow_category":6,"service_date":"2023-09-02","direction_id":1,"headway_secs":1800,"departures":["07:35:00","08:05:00","08:35:00","09:05:00","09:35:00","10:05:00","10:35:00","11:05:00","11:35:00","12:05:00","12:35:00","13:05:00","13:35:00","14:05:00","14:35:00","15:05:00","15:35:00","16:05:00","16:35:00","17:05:00","17:35:00","18:05:00","18:35:00","19:05:00","19:35:00","20:05:00","21:05:00","22:20:00","23:35:00"]},{"__typename":"RouteHeadway","dow_category":7,"service_date":"2023-09-03","direction_id":1,"headway_secs":null,"departures":["09:05:00","09:50:00","10:35:00","11:20:00","12:05:00","12:50:00","13:35:00","14:20:00","15:05:00","15:50:00","16:35:00","17:20:00","18:05:00","18:50:00","19:35:00"]}],"feed_version":{"__typename":"FeedVersion","id":382219,"fetched_at":"2024-01-29T21:28:56.237993Z"}},"id":42434268}]}